[
    {
        "id": 1,
        "name": "Breizhcamp",
        "startDate": "2017-04-19",
        "endDate": "2017-04-21",
        "country": "France",
        "region": 4,
        "city": "Rennes",
        "state": "Brittany",
        "website": "http://www.breizhcamp.org",
        "gps": {
            "lat": 48.11198043823242,
            "lng": -1.6742899417877197
        }
    },
    {
        "id": 2,
        "name": "Devoxx France",
        "startDate": "2017-04-5",
        "endDate": "2017-04-7",
        "country": "France",
        "region": 4,
        "city": "Paris",
        "state": "Ile-de-France",
        "website": "https://devoxx.fr",
        "gps": {
            "lat": 48.85340881347656,
            "lng": 2.34879994392395
        }
    },
    {
        "id": 3,
        "name": "ng-conf",
        "startDate": "2017-04-5",
        "endDate": "2017-04-7",
        "country": "United States",
        "region": 6,
        "city": "Salt Lake City",
        "state": "Utah",
        "website": "https://www.ng-conf.org",
        "gps": {
            "lat": 40.760780334472656,
            "lng": -111.89105224609375
        }
    },
    {
        "id": 4,
        "name": "Angular Camp",
        "startDate": "2017-07-01",
        "endDate": "2017-07-01",
        "country": "Spain",
        "region": 4,
        "city": "Barcelona",
        "state": "Catalogna",
        "website": "https://angularcamp.org",
        "gps": {
            "lat": 41.388790130615234,
            "lng": 2.158989906311035
        }
    },
    {
        "id": 5,
        "name": "NG-NL",
        "startDate": "2017-03-15",
        "endDate": "2017-03-16",
        "country": "Netherlands",
        "region": 4,
        "city": "Amsterdam",
        "state": "North Holland",
        "website": "https://ng-nl.org",
        "gps": {
            "lat": 52.37403106689453,
            "lng": 4.889689922332764
        }
    },
    {
        "id": 6,
        "name": "ng-viking",
        "startDate": "2017-02-11",
        "endDate": "2017-02-12",
        "country": "Denmark",
        "region": 4,
        "city": "Copenhagen",
        "state": "Capital",
        "website": "https://ngvikings.org",
        "gps": {
            "lat": 55.675941467285156,
            "lng": 12.565529823303223
        }
    },
    {
        "id": 7,
        "name": "Devfest Lille",
        "startDate": "2017-06-09",
        "endDate": "2017-06-09",
        "country": "France",
        "region": 4,
        "city": "Lille",
        "state": "Hauts-de-France",
        "website": "https://devfest.gdglille.org/",
        "gps": {
            "lat": 50.637222,
            "lng": 3.063333
        }
    },
    {
        "id": 8,
        "name": "Nordic.js",
        "startDate": "2017-09-07",
        "endDate": "2017-09-08",
        "country": "Sweden",
        "region": 4,
        "city": "Stockholm",
        "state": "SÃ¶dermanland and Uppland",
        "website": "http://nordicjs.com/",
        "gps": {
            "lat": 59.329444,
            "lng": 18.068611
        }
    }
]
